,City,Temperature °F,Humidity,Cloudiness,Wind Speed,Latitude,Longitude,Country,Date
0,Martyush,49.6,92,100,4.16,56.4,61.88,RU,1601354370
1,La Ronge,51.8,71,20,10.29,55.1,-105.28,CA,1601354134
2,Laguna,77.0,40,1,4.61,38.42,-121.42,US,1601354093
3,Arrondissement d'Ajaccio,53.6,87,20,8.05,42.0,8.92,FR,1601354371
4,Srednekolymsk,52.99,53,100,10.27,67.45,153.68,RU,1601354147
5,Saint Paul Harbor,48.2,66,1,4.7,57.79,-152.41,US,1601354140
6,Saldanha,41.0,86,0,4.7,-33.01,17.94,ZA,1601354371
7,West Bay,84.0,83,1,1.01,19.37,-81.42,KY,1601354371
8,Albany,69.01,86,3,8.55,42.6,-73.97,US,1601354158
9,George Town,87.8,66,20,8.05,5.41,100.34,MY,1601353883
10,Utevka,55.72,61,0,4.5,52.9,50.95,RU,1601354372
11,Punta Arenas,30.2,86,20,13.87,-53.15,-70.92,CL,1601354372
12,Berlevåg,44.6,87,8,5.82,70.86,29.09,NO,1601354373
13,Carnarvon,73.4,60,0,23.04,-24.87,113.63,AU,1601354092
14,Port Alfred,56.88,66,5,22.17,-33.59,26.89,ZA,1601354048
15,Bredasdorp,46.4,87,56,5.82,-34.53,20.04,ZA,1601354052
16,Kapaa,82.4,69,40,6.93,22.08,-159.32,US,1601354067
17,Pingxiang,68.14,93,100,2.75,27.62,113.85,CN,1601354374
18,Cerinza,47.55,83,46,2.98,5.96,-72.95,CO,1601354374
19,Gerāsh,78.8,50,0,1.3,27.67,54.14,IR,1601354144
20,Kathmandu,77.0,73,20,2.24,27.72,85.32,NP,1601354115
21,Rikitea,71.62,84,97,19.89,-23.12,-134.97,PF,1601354048
22,Bandarbeyla,80.08,73,50,17.98,9.49,50.81,SO,1601353887
23,Kysyl-Syr,43.92,60,75,16.82,63.9,122.76,RU,1601354376
24,Kaitangata,36.0,75,99,17.0,-46.28,169.85,NZ,1601354088
25,Hermanus,44.01,95,43,2.68,-34.42,19.23,ZA,1601353876
26,Codajás,74.28,89,4,1.7,-3.84,-62.06,BR,1601354377
27,Mataura,39.0,78,94,21.0,-46.19,168.86,NZ,1601354063
28,Saskylakh,30.06,96,100,13.78,71.92,114.08,RU,1601353948
29,Ushibukamachi,75.7,55,33,5.97,32.19,130.02,JP,1601354377
30,Atuona,77.97,75,8,16.44,-9.8,-139.03,PF,1601353890
31,Leningradskiy,33.64,86,0,7.05,69.38,178.42,RU,1601353953
32,Iskateley,47.28,92,96,12.48,67.68,53.15,RU,1601354379
33,Nardaran,60.8,63,81,2.24,40.56,50.01,AZ,1601354379
34,Nelson Bay,68.0,55,40,13.87,-32.72,152.15,AU,1601354257
35,Alofi,80.6,78,2,10.29,-19.06,-169.92,NU,1601353921
36,Chokurdakh,43.18,64,65,4.59,70.63,147.92,RU,1601353937
37,Mehamn,44.6,87,36,5.82,71.04,27.85,NO,1601354090
38,Baft,64.69,43,0,3.56,29.23,56.61,IR,1601354380
39,Paysandu,54.0,72,0,7.52,-32.32,-58.08,UY,1601354381
40,Sitka,51.8,81,40,4.7,57.05,-135.33,US,1601354013
41,Lebu,46.58,85,86,5.41,-37.62,-73.65,CL,1601354058
42,Hokitika,46.35,58,56,23.15,-42.72,170.97,NZ,1601354382
43,Cairns,84.0,54,40,18.34,-16.92,145.77,AU,1601354179
44,Hobart,66.99,59,75,12.75,-42.88,147.33,AU,1601354034
45,Raudeberg,52.0,94,100,7.18,61.99,5.14,NO,1601354382
46,Pontianak,91.8,51,56,1.86,-0.03,109.33,ID,1601354373
47,East London,55.4,62,21,11.41,-33.02,27.91,ZA,1601354071
48,Boyle,55.99,100,90,3.51,37.63,-84.87,US,1601354383
49,Dikson,39.67,92,100,24.11,73.51,80.55,RU,1601353985
50,Dom Pedrito,47.53,85,0,3.29,-30.98,-54.67,BR,1601354383
51,Cape Town,54.0,93,40,3.36,-33.93,18.42,ZA,1601354028
52,Hilo,80.6,69,20,6.93,19.73,-155.09,US,1601353775
53,Husavik,35.6,69,90,8.05,66.04,-17.34,IS,1601353904
54,Puerto Ayora,68.0,85,97,5.01,-0.74,-90.35,EC,1601354086
55,Kościerzyna,51.8,87,77,2.24,54.12,17.98,PL,1601354384
56,Leh,48.67,39,0,5.23,34.17,77.58,IN,1601354201
57,Gladstone,75.2,53,90,18.34,-23.85,151.25,AU,1601354385
58,Saint-Augustin,59.56,93,77,9.78,51.23,-58.65,CA,1601353925
59,Mogwase,58.14,43,0,4.45,-25.18,27.27,ZA,1601354385
60,Kovernino,50.29,61,100,7.67,57.13,43.81,RU,1601354386
61,Provideniya,41.0,84,75,2.24,64.38,-173.3,RU,1601354071
62,Igarka,35.65,82,60,10.49,67.47,86.58,RU,1601354145
63,Christchurch,46.99,28,69,27.51,-43.53,172.63,NZ,1601354259
64,Yellowknife,48.0,81,40,8.05,62.46,-114.35,CA,1601353924
65,Khatanga,32.86,89,100,13.33,71.97,102.5,RU,1601353896
66,Ibicuí,70.0,87,80,3.04,-14.84,-39.99,BR,1601354387
67,Florence,50.0,100,84,2.24,43.77,11.25,IT,1601354387
68,Mpongwe,69.62,34,29,8.9,-13.51,28.16,ZM,1601354388
69,Ushuaia,30.2,80,14,2.24,-54.8,-68.3,AR,1601354060
70,Mezen',46.83,89,26,6.49,65.85,44.24,RU,1601354388
71,Port Hardy,55.4,93,20,2.71,50.7,-127.42,CA,1601354098
72,Nome,42.8,70,90,3.36,64.5,-165.41,US,1601353927
73,Rome,70.0,73,1,6.93,43.21,-75.46,US,1601354389
74,Bluff,39.0,78,99,21.0,-46.6,168.33,NZ,1601354050
75,Luang Prabang,87.8,66,40,2.24,19.89,102.13,LA,1601354124
76,Avarua,75.2,73,19,14.99,-21.21,-159.78,CK,1601354122
77,Ulaangom,51.48,45,28,3.74,49.98,92.07,MN,1601354390
78,New Norfolk,66.99,47,39,1.01,-42.78,147.06,AU,1601353893
79,Kruisfontein,53.01,70,8,1.01,-34.0,24.73,ZA,1601354078
80,Ilebo,70.41,94,100,1.28,-4.32,20.58,CD,1601354064
81,Hanover,46.99,93,20,3.36,52.37,9.73,DE,1601354250
82,Los Llanos de Aridane,71.6,83,75,17.22,28.66,-17.92,ES,1601354391
83,Iqaluit,21.0,85,20,5.82,63.75,-68.51,CA,1601353812
84,Gemeente Stadskanaal,53.01,91,99,4.0,52.98,6.95,NL,1601354392
85,Havre-St-Pierre,57.2,93,90,6.93,50.23,-63.6,CA,1601354039
86,Trāl,69.53,29,0,3.51,33.93,75.1,IN,1601354393
87,Barrow,32.0,96,90,8.05,71.29,-156.79,US,1601353901
88,Klaksvík,42.8,100,0,2.24,62.23,-6.59,FO,1601353924
89,Torres,57.51,79,0,2.98,-29.34,-49.73,BR,1601354393
90,Atasū,50.23,59,79,2.53,48.68,71.64,KZ,1601354394
91,Mallaig,48.11,65,28,8.68,54.22,-111.37,CA,1601354394
92,Goianésia,77.13,27,26,2.46,-15.32,-49.12,BR,1601354394
93,Cherskiy,46.98,55,72,17.65,68.75,161.3,RU,1601354206
94,Castro,60.91,98,2,5.14,-24.79,-50.01,BR,1601354077
95,Lata,64.0,100,75,3.36,40.16,-8.33,PT,1601353928
96,Nikolskoye,51.01,93,90,4.47,59.7,30.79,RU,1601354051
97,Busselton,64.99,84,99,1.99,-33.65,115.33,AU,1601353880
98,Faanui,77.65,81,4,20.83,-16.48,-151.75,PF,1601354053
99,São Filipe,79.92,80,11,12.28,14.9,-24.5,CV,1601353949
100,Ponta do Sol,68.0,82,75,11.41,32.67,-17.1,PT,1601354050
101,Broken Hill,71.6,27,40,12.75,-31.95,141.43,AU,1601354396
102,Praia,80.6,83,20,14.99,14.92,-23.51,CV,1601354209
103,Port Elizabeth,55.4,66,20,18.34,-33.92,25.57,ZA,1601354069
104,Atar,83.89,29,0,5.77,20.52,-13.05,MR,1601354397
105,Buala,81.09,79,100,4.29,-8.14,159.59,SB,1601354233
106,Muros,54.0,83,92,1.01,42.78,-9.06,ES,1601354116
107,Fortuna,66.2,63,90,8.05,40.6,-124.16,US,1601353875
108,Arraial do Cabo,73.36,90,100,10.87,-22.97,-42.03,BR,1601354078
109,Padang,85.84,64,93,5.19,-0.95,100.35,ID,1601354142
110,Popondetta,80.92,76,96,4.65,-8.75,148.25,PG,1601354399
111,San Quintín,72.43,70,0,9.04,30.48,-115.95,MX,1601353893
112,Lüderitz,54.91,47,0,15.75,-26.65,15.16,NA,1601353895
113,The Valley,84.2,74,20,12.75,18.22,-63.06,AI,1601353884
114,Seligenstadt,53.01,90,55,3.47,50.04,8.97,DE,1601354400
115,Barahan,85.57,69,100,6.58,13.01,120.76,PH,1601354400
116,Kahului,82.4,65,40,14.99,20.89,-156.47,US,1601353911
117,Manokwari,83.59,68,95,4.54,-0.87,134.08,ID,1601353889
118,Norman Wells,41.0,93,90,10.29,65.28,-126.83,CA,1601354128
119,Bahir Dar,64.63,79,1,3.69,11.59,37.39,ET,1601354401
120,Inhambane,71.6,100,20,2.75,-23.86,35.38,MZ,1601354252
121,Walvis Bay,50.0,87,0,6.93,-22.96,14.51,NA,1601354402
122,Pevek,39.97,71,99,10.09,69.7,170.31,RU,1601353914
123,Bianzhuang,78.08,45,26,5.99,34.85,118.04,CN,1601354403
124,Saiki,75.2,60,20,5.82,32.95,131.9,JP,1601354404
125,Jalu,82.06,23,0,6.35,29.03,21.55,LY,1601353997
126,Bonavista,60.21,90,82,19.08,48.65,-53.11,CA,1601354056
127,Baie-Comeau,57.2,100,90,4.7,49.22,-68.15,CA,1601354404
128,Mar del Plata,51.01,100,26,6.93,-38.0,-57.56,AR,1601353839
129,Tasiilaq,30.2,92,71,3.36,65.61,-37.64,GL,1601354057
130,Santa Isabel,68.0,77,97,3.36,-23.32,-46.22,BR,1601354405
131,Eston,55.4,58,20,8.05,51.15,-108.75,CA,1601354019
132,Ayagoz,44.82,57,0,4.76,47.97,80.44,KZ,1601354406
133,Tuktoyaktuk,35.6,93,90,11.41,69.45,-133.04,CA,1601354056
134,Vila Franca do Campo,68.0,82,20,10.29,37.72,-25.43,PT,1601354150
135,Sontra,39.99,94,0,1.01,51.07,9.93,DE,1601354406
136,Rochegda,45.97,86,10,5.53,62.8,43.25,RU,1601354407
137,Tulagi,80.6,88,75,4.7,-9.1,160.15,SB,1601354407
138,Gizo Government Station,77.18,83,100,3.87,-8.1,156.84,SB,1601354256
139,Bethel,66.2,93,1,6.93,41.37,-73.41,US,1601354048
140,Upernavik,23.32,87,46,7.58,72.79,-56.15,GL,1601354110
141,Anjozorobe,59.0,87,40,3.36,-18.4,47.87,MG,1601354408
142,Zhanakorgan,60.87,30,0,16.33,43.91,67.25,KZ,1601354409
143,Cabo San Lucas,84.0,78,0,6.91,22.89,-109.91,MX,1601354114
144,Garoowe,77.68,66,48,12.15,8.41,48.48,SO,1601354410
145,St. Pete Beach,79.0,94,1,4.7,27.73,-82.74,US,1601354410
146,Hasaki,72.0,60,75,14.99,35.73,140.83,JP,1601354074
147,São João da Barra,73.33,91,54,3.85,-21.64,-41.05,BR,1601354112
148,Lagoa,66.07,80,94,15.82,39.05,-27.98,PT,1601354101
149,Chitungwiza,70.83,53,49,8.39,-18.01,31.08,ZW,1601354411
150,Portland,75.0,59,1,3.36,45.52,-122.68,US,1601354024
151,Vila Velha,77.0,83,0,11.41,-20.33,-40.29,BR,1601354129
152,Kodār,85.91,74,95,10.07,16.98,79.97,IN,1601354412
153,Vaini,78.8,83,20,8.05,-21.2,-175.2,TO,1601353870
154,Beloha,75.87,64,33,5.44,-25.17,45.05,MG,1601353965
155,Tizimín,75.61,94,36,5.08,21.15,-88.15,MX,1601354413
156,Cacequi,51.6,81,0,4.9,-29.88,-54.83,BR,1601354413
157,Cullman,60.01,93,1,8.21,34.17,-86.84,US,1601354135
158,Homer,50.0,76,75,6.93,59.64,-151.55,US,1601354006
159,Ishigaki,84.2,62,20,9.17,24.34,124.16,JP,1601354287
160,Fort Nelson,41.0,75,75,4.7,58.81,-122.7,CA,1601354165
161,Vestmannaeyjar,45.75,78,74,15.5,63.44,-20.27,IS,1601354414
162,Rørvik,54.05,84,76,14.5,64.86,11.24,NO,1601354415
163,Esperance,71.6,46,12,17.22,-33.87,121.9,AU,1601353908
164,Mweka,68.47,98,100,1.48,-4.85,21.57,CD,1601354415
165,Ilulissat,26.6,53,87,13.87,69.22,-51.1,GL,1601354244
166,Mitha Tiwana,91.65,19,0,8.16,32.25,72.11,PK,1601354416
167,Itarema,79.0,79,36,16.96,-2.92,-39.92,BR,1601354097
168,Nogliki,56.44,74,98,13.94,51.83,143.17,RU,1601354416
169,Shenjiamen,72.68,62,28,9.91,29.96,122.3,CN,1601354417
170,Sinjai,87.31,56,99,8.48,-5.12,120.25,ID,1601354417
171,Kuril'sk,62.28,69,0,7.63,45.23,147.88,RU,1601354156
172,Batagay-Alyta,37.02,74,100,3.76,67.8,130.41,RU,1601354418
173,Kumul,69.98,22,88,8.46,42.8,93.45,CN,1601354089
174,Fallon,60.01,30,1,5.82,39.47,-118.78,US,1601354418
175,Chui,48.02,87,0,5.21,-33.7,-53.46,UY,1601354081
176,Aras,51.01,93,100,3.36,42.56,-2.36,ES,1601354419
177,Coquimbo,55.4,82,41,4.7,-29.95,-71.34,CL,1601354195
178,El Alto,61.95,84,80,15.05,-4.27,-81.21,PE,1601354419
179,Hithadhoo,83.95,68,53,8.63,-0.6,73.08,MV,1601353891
180,Sørland,50.0,87,28,1.12,67.67,12.69,NO,1601354420
181,Butaritari,82.29,73,67,10.92,3.07,172.79,KI,1601353876
182,Hwange,77.74,40,85,2.3,-18.37,26.5,ZW,1601354420
183,Souillac,75.2,78,75,9.17,-20.52,57.52,MU,1601353957
184,Yerbogachën,38.34,69,93,7.9,61.28,108.01,RU,1601353973
185,Turukhansk,36.03,79,3,10.76,65.82,87.98,RU,1601354089
186,Bathsheba,75.2,88,75,4.7,13.22,-59.52,BB,1601354059
187,Banjar,86.0,74,75,14.99,-8.19,114.97,ID,1601354422
188,Inírida,73.62,92,78,1.21,3.87,-67.92,CO,1601354065
189,Petropavlovsk-Kamchatskiy,51.8,62,75,11.18,53.05,158.65,RU,1601353930
190,Saint-Philippe,75.2,69,37,4.7,-21.36,55.77,RE,1601354068
191,Omboué,73.26,82,97,4.34,-1.57,9.26,GA,1601354423
192,Nouadhibou,72.18,82,0,20.11,20.93,-17.03,MR,1601354423
193,Sandwick,51.8,87,0,11.41,60.0,-1.25,GB,1601354005
194,Kavieng,84.02,69,35,6.78,-2.57,150.8,PG,1601354057
195,Kavaratti,84.2,74,40,6.93,10.57,72.64,IN,1601354195
196,Mareeba,84.0,54,52,8.99,-17.0,145.43,AU,1601354134
197,Karratha,88.74,18,37,11.45,-20.74,116.85,AU,1601353977
198,Lavrentiya,33.78,86,43,0.81,65.58,-171.0,RU,1601354082
199,Bima,93.04,41,24,6.2,-8.47,118.72,ID,1601354425
200,Kapit,86.45,58,100,0.6,2.02,112.93,MY,1601354267
201,Palmer,66.2,88,75,5.82,42.16,-72.33,US,1601354425
202,Qaanaaq,12.69,78,64,8.34,77.48,-69.36,GL,1601353887
203,Bayanday,51.98,50,25,1.1,53.07,105.51,RU,1601354426
204,Yatou,73.08,55,100,5.19,37.15,122.38,CN,1601354017
205,Kulhudhuffushi,82.35,74,90,8.25,6.62,73.07,MV,1601354179
206,Fergus Falls,46.99,87,40,4.7,46.28,-96.08,US,1601354427
207,Qandala,86.88,55,0,5.32,11.47,49.87,SO,1601354427
208,Iaçu,72.36,80,39,5.48,-12.77,-40.21,BR,1601354427
209,Batemans Bay,66.0,49,48,1.01,-35.72,150.18,AU,1601354428
210,Olafsvik,36.59,93,94,17.49,64.89,-23.71,IS,1601353873
211,Nabire,86.81,60,37,6.11,-3.37,135.48,ID,1601354428
212,Camacha,69.8,68,20,13.87,33.08,-16.33,PT,1601354429
213,Pingliang,68.38,45,1,4.94,35.54,106.69,CN,1601354429
214,San Miguel de Cozumel,82.99,83,1,4.0,20.51,-86.95,MX,1601353597
215,College,46.4,70,75,3.36,64.86,-147.8,US,1601354252
216,Saint-Joseph,75.2,69,21,4.7,-21.37,55.62,RE,1601354430
217,Yulara,87.8,33,32,12.75,-25.24,130.99,AU,1601354115
218,Airai,79.7,43,2,5.01,-8.93,125.41,TL,1601353930
219,Massena,72.0,73,20,6.93,44.93,-74.89,US,1601354430
220,Cidreira,57.67,83,0,6.76,-30.18,-50.21,BR,1601354173
221,Dongsheng,58.12,50,2,10.96,39.82,109.98,CN,1601354431
222,Mahébourg,75.2,78,75,9.17,-20.41,57.7,MU,1601353905
223,Escanaba,48.99,93,40,8.05,45.75,-87.06,US,1601354263
224,Virginia Beach,73.4,78,90,6.93,36.85,-75.98,US,1601353798
225,Ribeira Grande,66.7,81,95,18.9,38.52,-28.7,PT,1601354111
226,Mogadishu,79.52,78,15,12.1,2.04,45.34,SO,1601353831
227,Wewak,83.25,71,89,6.67,-3.55,143.63,PG,1601354432
228,Terra Santa,76.53,71,5,3.8,-2.1,-56.49,BR,1601354433
229,Port-Gentil,76.84,73,96,8.59,-0.72,8.78,GA,1601354346
230,Kyzyl-Mazhalyk,51.15,44,70,1.1,51.13,90.6,RU,1601354433
231,Nemuro,68.0,64,20,9.17,43.32,145.57,JP,1601354086
232,Katsuura,72.0,64,75,17.22,35.13,140.3,JP,1601354095
233,Valparaíso,50.0,100,75,3.36,-33.04,-71.63,CL,1601354049
234,Allāpalli,85.46,74,0,4.07,19.42,80.07,IN,1601354434
235,Sorong,83.62,70,47,7.02,-0.88,131.25,ID,1601353960
236,Bhasāwar,93.29,22,0,3.31,27.03,77.03,IN,1601354435
237,Salinas,60.8,87,90,9.17,36.68,-121.66,US,1601353954
238,Thompson,42.8,100,90,5.82,55.74,-97.86,CA,1601353881
239,Meulaboh,86.14,63,94,3.94,4.14,96.13,ID,1601354435
240,Bubaque,80.91,74,94,4.05,11.28,-15.83,GW,1601353878
241,Basco,82.33,81,38,11.18,20.45,121.97,PH,1601354013
242,Mount Isa,95.0,11,59,11.41,-20.73,139.5,AU,1601354117
243,Caluquembe,54.16,76,72,2.73,-13.78,14.68,AO,1601354436
244,Shintomi,78.8,54,40,13.87,32.08,131.47,JP,1601354437
245,Pisco,61.0,82,20,3.36,-13.7,-76.22,PE,1601353928
246,Jamestown,61.0,87,90,14.99,42.1,-79.24,US,1601353595
247,Tiksi,36.59,76,15,17.05,71.69,128.87,RU,1601354437
248,Hong Kong,84.99,86,94,12.1,22.29,114.16,HK,1601353881
249,San Sebastián Etla,62.56,81,100,1.48,17.06,-96.79,MX,1601354438
250,Codrington,64.04,70,100,14.63,-38.27,141.97,AU,1601354009
251,Purranque,48.2,81,100,8.05,-40.92,-73.17,CL,1601354439
252,Tilichiki,43.61,84,100,12.71,60.47,166.1,RU,1601354439
253,Paramonga,60.39,85,87,7.83,-10.67,-77.83,PE,1601354439
254,Tezu,90.97,48,20,2.93,27.92,96.17,IN,1601353947
255,Genhe,52.72,43,13,4.83,50.78,121.52,CN,1601354440
256,Aykhal,26.6,92,90,13.42,66.0,111.5,RU,1601354440
257,Ola,47.05,71,100,2.26,59.58,151.28,RU,1601354274
258,Buncrana,43.34,92,60,5.41,55.13,-7.45,IE,1601354441
259,Kerema,81.21,73,94,8.55,-7.96,145.78,PG,1601354441
260,Saint Anthony,51.8,76,90,10.29,45.02,-93.22,US,1601354253
261,Mossamedes,61.97,88,100,3.4,-15.2,12.15,AO,1601353898
262,Yinchuan,66.06,49,4,5.48,38.47,106.27,CN,1601354442
263,Erzin,73.99,91,0,1.9,36.96,36.2,TR,1601354140
264,Ambon City,87.8,74,20,5.82,-3.7,128.18,ID,1601354218
265,Lumut,87.8,74,20,3.36,4.23,100.63,MY,1601354443
266,Murray,54.0,37,1,4.7,40.67,-111.89,US,1601354443
267,Mingguang,78.42,55,86,5.53,32.78,117.96,CN,1601354444
268,Carutapera,77.86,81,0,7.9,-1.2,-46.02,BR,1601354444
269,Umluj,94.89,25,0,10.58,25.02,37.27,SA,1601354444
270,Poronaysk,61.29,55,54,11.16,49.22,143.12,RU,1601354445
271,Wuzhou,81.7,81,99,3.96,23.48,111.32,CN,1601354445
272,Robertsport,76.68,89,100,7.76,6.75,-11.37,LR,1601354446
273,Oranjemund,52.59,65,0,12.66,-28.55,16.43,NA,1601354446
274,Derzhavīnsk,56.59,49,0,6.26,51.1,66.32,KZ,1601354447
275,Bara,71.87,89,87,5.23,10.37,10.73,NG,1601354447
276,Wuwei,67.71,40,23,7.14,37.93,102.64,CN,1601354448
277,Poum,70.03,84,100,25.95,-20.23,164.02,NC,1601354176
278,Cap-aux-Meules,60.8,92,100,21.7,47.38,-61.86,CA,1601354448
279,Slave Lake,55.4,50,1,17.22,55.28,-114.77,CA,1601354448
280,Provincia di Imperia,59.0,77,5,5.82,43.97,7.78,IT,1601354449
281,Damietta,80.6,83,0,11.41,31.42,31.81,EG,1601354449
282,Sanchursk,50.34,68,98,5.88,56.94,47.25,RU,1601354449
283,Moscow,54.0,76,100,4.47,55.75,37.62,RU,1601353788
284,Benguela,69.87,81,53,1.48,-12.58,13.41,AO,1601354450
285,Grindavik,39.2,86,75,12.75,63.84,-22.43,IS,1601354450
286,Avera,71.6,95,90,6.04,33.19,-82.53,US,1601354024
287,Abhā,64.4,27,69,4.72,18.22,42.51,SA,1601354451
288,Djebeniana,69.8,83,0,4.7,35.03,10.91,TN,1601354451
289,Kismayo,79.18,75,99,11.1,-0.36,42.55,SO,1601353923
290,Orshanka,50.29,66,95,5.5,56.92,47.89,RU,1601354452
291,Yangi Marg`ilon,64.4,36,100,4.7,40.43,71.72,UZ,1601354121
292,Kangaatsiaq,32.59,92,100,3.2,68.31,-53.46,GL,1601354196
293,Ayr,42.8,93,20,2.8,55.46,-4.63,GB,1601354453
294,Puerto Ayacucho,75.54,90,90,3.22,5.66,-67.62,VE,1601354453
295,Tūkrah,76.17,85,1,14.32,32.53,20.58,LY,1601354453
296,Bilibino,39.09,71,23,1.43,68.05,166.44,RU,1601354066
297,Mayo,73.0,100,90,9.17,38.89,-76.51,US,1601353976
298,Médéa,53.6,93,20,3.36,36.26,2.75,DZ,1601354454
299,Real,91.0,66,20,9.17,14.66,121.6,PH,1601354455
300,Tigil',49.42,55,100,18.41,57.8,158.67,RU,1601353933
301,East Wenatchee,62.6,51,1,4.7,47.42,-120.29,US,1601354455
302,Saint George,75.2,13,1,18.34,37.1,-113.58,US,1601353937
303,Qui Nhon,88.32,60,100,3.76,13.77,109.23,VN,1601354398
304,Nuevo Ideal,58.62,84,84,4.65,24.89,-105.07,MX,1601354456
305,Caravelas,74.5,83,47,8.08,-17.71,-39.25,BR,1601354092
306,Ayan,49.82,76,100,13.98,56.45,138.17,RU,1601354033
307,Astoria,69.8,64,1,17.22,46.19,-123.83,US,1601354457
308,Uglovoye,69.57,46,100,5.03,44.82,33.6,UA,1601354457
309,Richards Bay,62.22,88,97,3.24,-28.78,32.04,ZA,1601354458
310,Bolgar,37.4,86,61,3.31,54.95,49.07,RU,1601354458
311,Riverton,52.0,49,2,1.34,40.52,-111.94,US,1601354430
312,Ciudad del Carmen,84.47,79,82,8.28,18.63,-91.83,MX,1601354227
313,Darnah,77.0,82,0,14.09,32.77,22.64,LY,1601354459
314,Gemeente Heerenveen,54.0,1,100,4.0,52.95,5.93,NL,1601354459
315,Mahon,60.8,82,3,6.93,39.89,4.27,ES,1601354459
316,Dvinskoy Bereznik,46.02,85,0,5.37,62.86,42.71,RU,1601353925
317,Socorro,66.0,22,1,13.87,31.65,-106.3,US,1601354460
318,Morehead,55.4,87,1,5.82,37.27,-87.18,US,1601354460
319,Juneau,52.0,81,90,11.41,58.3,-134.42,US,1601353859
320,Biak,82.09,74,47,6.73,-0.91,122.88,ID,1601353944
321,Dudinka,30.2,100,90,15.66,69.41,86.18,RU,1601354256
322,Burlington,66.2,93,20,5.82,39.88,-74.64,US,1601354461
323,Spirit River,55.4,50,75,20.8,55.78,-118.84,CA,1601354462
324,Nizhny Tagil,50.49,92,100,2.26,57.92,59.97,RU,1601354462
325,Jenks,55.99,81,1,5.64,36.02,-95.97,US,1601354462
326,Morondava,77.47,52,0,4.34,-20.28,44.28,MG,1601353992
327,Mountain Home,57.2,41,1,4.7,43.13,-115.69,US,1601354463
328,Alyangula,87.8,62,90,9.17,-13.85,136.42,AU,1601354193
329,Sicuani,45.75,70,99,4.65,-14.27,-71.23,PE,1601354463
330,Cam Ranh,91.4,63,75,4.7,11.92,109.16,VN,1601354464
331,Jesús del Monte,57.2,58,40,13.87,19.11,-99.99,MX,1601354464
332,Nampula,68.0,88,8,10.29,-15.12,39.27,MZ,1601354464
333,Mitsamiouli,77.54,73,49,10.98,-11.38,43.28,KM,1601354465
334,Beringovskiy,41.77,76,2,0.76,63.05,179.32,RU,1601353969
335,Touros,71.6,100,20,3.36,-5.2,-35.46,BR,1601354078
336,Serenje,67.89,44,4,2.91,-13.23,30.24,ZM,1601354466
337,Navoiy,59.0,30,95,18.34,40.08,65.38,UZ,1601354467
338,Petropavlovka,55.94,41,1,3.11,50.61,105.32,RU,1601354467
339,Bengkulu,86.32,65,0,15.37,-3.8,102.27,ID,1601353909
340,Langxiang,55.44,55,27,7.78,46.95,128.88,CN,1601354468
341,Shaunavon,57.88,54,85,4.21,49.65,-108.42,CA,1601354468
342,Dawlatabad,55.18,48,100,7.43,36.41,64.91,AF,1601354469
343,Addanki,87.08,68,75,7.76,15.82,79.98,IN,1601354469
344,Mirny,37.4,55,90,17.9,62.54,113.96,RU,1601354470
345,Ancud,48.99,94,100,3.0,-41.87,-73.82,CL,1601354135
346,Aklavik,35.6,100,90,3.36,68.22,-135.01,CA,1601353900
347,Kentau,56.95,34,25,20.89,43.52,68.51,KZ,1601354471
348,Bonthe,76.42,90,100,4.79,7.53,-12.51,SL,1601354471
349,Kokopo,82.56,78,50,6.2,-4.35,152.26,PG,1601354472
350,Rāwah,82.24,17,0,6.02,34.48,41.91,IQ,1601354473
351,Elizabeth City,73.4,88,1,5.82,36.29,-76.25,US,1601354264
352,Severo-Kuril'sk,50.07,88,100,7.02,50.68,156.12,RU,1601353986
353,Łomża,48.87,83,100,9.01,53.18,22.06,PL,1601354474
354,Geraldton,69.8,56,0,12.75,-28.77,114.6,AU,1601353871
355,Manta,71.6,83,75,9.17,-0.95,-80.73,EC,1601354474
356,Sur,90.55,42,0,3.15,22.57,59.53,OM,1601354192
357,Namatanai,82.53,73,72,2.98,-3.67,152.43,PG,1601353911
358,Korla,68.9,23,41,3.89,41.76,86.15,CN,1601354349
359,Sisimiut,29.89,94,95,5.93,66.94,-53.67,GL,1601354475
360,Canberra,64.0,39,40,8.05,-35.28,149.13,AU,1601354411
361,Salinópolis,78.55,80,0,11.88,-0.61,-47.36,BR,1601354104
362,Puerto Madryn,57.54,45,100,2.73,-42.77,-65.04,AR,1601354476
363,Jega,76.84,83,100,10.27,12.22,4.38,NG,1601354477
364,Prince Rupert,53.6,93,90,3.36,54.32,-130.32,CA,1601354141
365,Crestview,73.4,88,1,10.29,30.76,-86.57,US,1601354275
366,Clyde River,28.4,92,90,19.46,70.47,-68.59,CA,1601354099
367,Sijunjung,88.11,51,97,4.99,-0.69,100.95,ID,1601354478
368,Alice Springs,84.2,10,75,23.04,-23.7,133.88,AU,1601354197
369,Yakima,59.0,66,1,4.7,46.47,-120.67,US,1601354439
370,Waipawa,50.0,69,96,11.41,-41.41,175.52,NZ,1601354186
371,Edd,89.02,67,23,6.93,13.93,41.69,ER,1601354479
372,Buraidah,69.8,46,0,11.36,26.33,43.98,SA,1601354479
373,Hīt,84.52,23,0,13.69,33.64,42.83,IQ,1601354480
374,Champerico,69.01,96,83,6.2,14.3,-91.92,GT,1601354177
375,Bay-ang,85.82,66,16,2.44,11.03,122.94,PH,1601354480
376,Narsaq,28.4,58,0,5.97,60.92,-46.05,GL,1601354481
377,Marsh Harbour,81.99,75,97,12.71,26.54,-77.06,BS,1601354481
378,Samarai,78.49,84,98,18.19,-10.62,150.67,PG,1601354201
379,Broome,70.0,88,1,11.41,42.25,-75.83,US,1601354249
380,Boa Vista,78.8,78,40,4.7,2.82,-60.67,BR,1601354482
381,Udachny,26.6,92,90,13.42,66.42,112.4,RU,1601354483
382,Avrămeni,59.0,93,20,2.24,48.02,26.95,RO,1601354483
383,Guerrero Negro,74.17,66,0,11.43,27.98,-114.06,MX,1601354180
384,Henties Bay,50.0,92,0,1.23,-22.12,14.28,NA,1601353977
385,Oga,39.2,86,75,1.12,46.46,10.35,IT,1601354484
386,Vanavara,37.51,77,100,4.97,60.34,102.28,RU,1601354484
387,Manicoré,75.2,100,9,2.26,-5.81,-61.3,BR,1601354023
388,Kieta,81.45,71,100,6.69,-6.22,155.63,PG,1601354095
389,Port Lincoln,58.08,89,100,11.63,-34.73,135.87,AU,1601354109
390,Guadalupe y Calvo,51.12,81,10,7.87,26.1,-106.97,MX,1601354485
391,Santa Cruz de la Sierra,66.2,77,75,5.82,-17.8,-63.17,BO,1601354410
392,Nhulunbuy,86.0,58,75,14.99,-12.23,136.77,AU,1601354486
393,Dalbandin,86.27,12,6,7.61,28.89,64.41,PK,1601354486
394,Yumen,68.13,33,98,11.14,40.28,97.2,CN,1601354111
395,Torbay,64.0,100,90,20.8,47.67,-52.73,CA,1601354097
396,Paamiut,34.74,75,0,12.01,61.99,-49.67,GL,1601354169
397,Westport,71.01,88,75,6.93,41.14,-73.36,US,1601353972
398,Zhaotong,56.48,88,99,7.0,27.32,103.72,CN,1601354488
399,Constitución,47.41,85,100,4.97,-35.33,-72.42,CL,1601353998
400,Siocon,82.81,76,100,8.66,7.71,122.14,PH,1601354488
401,Esim,75.63,91,97,5.86,4.87,-2.24,GH,1601354102
402,Ujhāni,87.15,33,0,5.44,28.02,79.02,IN,1601354489
403,El Guamo,76.3,92,98,5.28,10.03,-74.98,CO,1601354489
404,Oktyabr'skiy,53.58,65,0,2.95,54.48,53.47,RU,1601354489
405,George,51.8,66,7,9.17,-33.96,22.46,ZA,1601354490
406,Yerofey Pavlovich,52.56,43,2,7.2,53.97,121.97,RU,1601354490
407,Hobyo,80.82,73,6,14.5,5.35,48.53,SO,1601354491
408,Acaraú,79.14,79,35,17.27,-2.89,-40.12,BR,1601354294
409,Enshi,71.58,72,96,0.49,30.3,109.48,CN,1601354346
410,Buchanan,76.73,89,99,3.56,5.88,-10.05,LR,1601354492
411,Harar,66.22,73,25,3.13,9.31,42.13,ET,1601354492
412,Esmeraldas,77.0,38,4,2.24,-19.76,-44.31,BR,1601354492
413,Longyearbyen,35.6,85,75,5.82,78.22,15.64,SJ,1601353885
414,Arroyo de la Encomienda,46.99,81,86,6.93,41.61,-4.8,ES,1601354493
415,Ploemeur,59.0,100,75,3.36,47.73,-3.43,FR,1601354493
416,Kwang Binh,85.62,74,100,4.36,17.48,106.6,VN,1601354493
417,Zhengjiatun,61.54,39,72,8.34,43.51,123.51,CN,1601354494
418,Saint Lawrence,69.01,77,20,5.82,36.06,14.2,MT,1601354273
419,Tarakan,78.75,76,100,2.71,3.3,117.63,ID,1601354165
420,Zvishavane,65.55,83,99,7.52,-20.33,30.07,ZW,1601354494
421,Nyköping,55.4,100,75,2.24,58.75,17.01,SE,1601354495
422,Tombouctou,88.61,16,0,3.91,20.0,-3.0,ML,1601354495
423,Tuatapere,39.0,78,88,21.0,-46.13,167.68,NZ,1601353922
424,Lima Duarte,66.07,83,100,1.99,-21.84,-43.79,BR,1601354496
425,Labuhan,91.63,43,0,8.05,-6.88,112.21,ID,1601353946
426,Dongying,68.09,72,98,14.32,37.46,118.49,CN,1601354482
427,Las Palmas,73.4,69,90,13.87,28.42,-14.01,ES,1601354496
428,Kattivākkam,84.2,79,75,8.05,13.22,80.32,IN,1601354497
429,Zemio,68.77,96,72,2.53,5.03,25.14,CF,1601354497
430,Erenhot,54.46,36,0,0.87,43.65,111.98,CN,1601354497
431,Andenes,50.0,87,63,13.87,69.31,16.12,NO,1601353994
432,Kui Buri,87.8,62,40,4.7,12.08,99.85,TH,1601354498
433,Weihai,70.92,72,100,13.2,37.5,122.11,CN,1601354445
434,Orlik,42.39,58,78,7.87,52.52,99.83,RU,1601354499
435,Ontario,78.8,57,1,6.93,34.06,-117.65,US,1601354499
436,Bonito,70.02,79,5,1.63,-21.12,-56.48,BR,1601354499
437,Balkhash,50.0,43,0,2.24,46.84,74.98,KZ,1601354500
438,Alugan,84.72,71,53,7.56,12.22,125.48,PH,1601354501
439,Ystad,48.2,93,31,4.7,55.43,13.82,SE,1601354088
440,Young,55.0,71,0,7.09,-32.68,-57.63,UY,1601354501
441,Birao,71.22,93,0,4.27,10.28,22.79,CF,1601354501
442,Santa Fe,55.13,63,0,8.59,-31.63,-60.7,AR,1601354502
443,Verāval,83.26,69,2,8.32,20.9,70.37,IN,1601354208
444,Ntcheu,70.84,51,2,4.09,-14.82,34.64,MW,1601354503
445,Galle,82.54,78,66,12.93,6.04,80.22,LK,1601354503
446,Cabedelo,73.4,94,20,3.36,-6.98,-34.83,BR,1601353930
447,Shepetivka,54.75,70,100,8.25,50.19,27.06,UA,1601354504
448,Antofagasta,57.2,76,90,3.36,-23.65,-70.4,CL,1601354504
449,Maningrida,87.84,54,46,13.49,-12.07,134.27,AU,1601354505
450,Calceta,71.6,83,75,9.17,-0.85,-80.17,EC,1601354505
451,Hirara,82.4,61,40,11.41,24.8,125.28,JP,1601354506
452,Ouro Fino,65.86,76,94,3.53,-22.28,-46.37,BR,1601354506
453,Alta Floresta,76.15,62,33,0.83,-9.88,-56.09,BR,1601354203
454,Lompoc,60.8,93,90,1.45,34.64,-120.46,US,1601353837
455,Giyani,62.96,81,99,7.99,-23.3,30.72,ZA,1601354507
456,Kutum,76.87,59,23,2.17,14.2,24.67,SD,1601354056
457,Ostrovnoy,50.25,82,41,18.23,68.05,39.51,RU,1601353966
458,Sioux Lookout,46.4,93,90,9.17,50.1,-91.92,CA,1601354187
459,Egvekinot,31.75,92,0,1.57,66.32,-179.17,RU,1601354508
460,Deer Lake,64.4,93,75,8.05,49.17,-57.43,CA,1601354508
461,Zambezi,70.59,67,11,7.18,-13.54,23.1,ZM,1601354063
462,Santa Rosa del Sur,70.48,93,93,1.28,7.96,-74.05,CO,1601354509
463,Alpena,51.8,100,1,3.36,45.06,-83.43,US,1601354438
464,Mumbai,86.0,74,75,3.36,19.01,72.85,IN,1601354486
465,Necochea,46.0,93,36,3.0,-38.55,-58.74,AR,1601354509
466,Northam,55.99,93,23,3.0,51.03,-4.22,GB,1601354510
467,Bucerías,77.0,88,90,11.41,20.75,-105.33,MX,1601354510
468,Arman',44.28,76,100,2.64,59.7,150.17,RU,1601354510
469,Topchikha,42.8,81,75,11.18,52.82,83.12,RU,1601354511
470,Moerai,70.32,73,0,21.59,-22.43,-151.33,PF,1601354511
471,Vrangel',63.63,79,88,10.51,42.73,133.08,RU,1601354511
472,La Palma,73.4,69,1,2.93,33.85,-118.05,US,1601354512
473,Nizwá,89.13,24,0,4.54,22.93,57.53,OM,1601354512
474,Bilma,86.74,14,54,8.88,18.69,12.92,NE,1601353913
475,Salalah,78.8,69,15,1.12,17.02,54.09,OM,1601354101
476,Naze,82.4,65,75,11.41,28.37,129.48,JP,1601354074
477,Gimli,48.0,99,100,9.31,50.63,-96.99,CA,1601354513
478,Pascagoula,69.8,77,75,12.75,30.37,-88.56,US,1601354387
479,Monster,61.0,84,97,5.01,52.03,4.17,NL,1601354513
480,Barhi,84.45,66,0,5.64,23.9,80.8,IN,1601354514
481,Bambous Virieux,75.99,78,75,9.17,-20.34,57.76,MU,1601354082
482,Kimbe,84.52,69,55,0.76,-5.55,150.14,PG,1601354515
483,Mount Gambier,68.0,42,75,19.46,-37.83,140.77,AU,1601354515
484,Sept-Îles,59.0,100,90,4.7,50.2,-66.38,CA,1601354516
485,Khirkiya,81.91,69,0,3.87,22.17,76.86,IN,1601354516
486,Nishihara,84.2,54,20,11.41,26.18,127.76,JP,1601354234
487,Morant Bay,82.4,74,20,6.93,17.88,-76.41,JM,1601354516
488,Umm Kaddadah,84.16,54,44,9.31,13.6,26.69,SD,1601354263
489,Williamsport,73.4,73,90,5.82,41.24,-77.0,US,1601354279
490,Yar-Sale,40.86,69,99,15.46,66.83,70.83,RU,1601354517
491,Ixtapa,77.0,88,90,11.41,20.7,-105.2,MX,1601354518
492,Cravo Norte,77.04,84,14,3.87,6.3,-70.2,CO,1601354518
493,Quatre Cocos,75.99,78,75,9.17,-20.21,57.76,MU,1601354085
494,Mirandola,48.99,79,0,0.31,44.89,11.07,IT,1601354519
495,Machico,66.2,82,75,11.41,32.7,-16.77,PT,1601354519
496,Nanortalik,35.53,76,0,12.93,60.14,-45.24,GL,1601354116
497,Yaan,72.1,98,100,6.73,7.38,8.57,NG,1601354196
498,Bukama,73.83,73,98,0.72,-9.2,25.85,CD,1601354520
499,Lyngseidet,51.8,76,20,19.46,69.58,20.22,NO,1601354520
500,Pudozh,47.68,84,27,5.06,61.81,36.53,RU,1601354521
501,Beyneu,61.5,31,49,6.44,45.32,55.2,KZ,1601354521
502,Santa Catarina de Tepehuanes,59.76,72,48,5.95,25.35,-105.73,MX,1601354521
503,Carahue,48.2,87,90,3.36,-38.7,-73.17,CL,1601354522
504,Hamilton,55.4,93,1,4.7,39.18,-84.53,US,1601354161
505,Mahibadhoo,82.89,71,86,7.67,3.78,72.97,MV,1601354523
506,Lorengau,85.33,67,35,9.35,-2.02,147.27,PG,1601354110
507,Tanete,94.06,36,63,12.39,-3.94,119.78,ID,1601354523
508,Roebourne,92.79,13,54,6.51,-20.78,117.13,AU,1601354056
509,Vao,67.53,78,98,19.82,-22.67,167.48,NC,1601353972
510,Oistins,75.2,88,75,4.7,13.07,-59.53,BB,1601354241
511,Znamenskoye,41.47,71,59,7.56,57.13,73.83,RU,1601354525
512,Coahuayana Viejo,80.35,80,89,2.37,18.73,-103.68,MX,1601354036
513,Tairua,55.99,61,2,18.01,-37.02,175.85,NZ,1601354525
514,Rock Springs,46.4,22,1,10.29,41.59,-109.2,US,1601354526
515,Lakatoro,84.2,66,40,8.05,-16.1,167.42,VU,1601354269
516,San Juan,62.4,38,0,15.86,-31.54,-68.54,AR,1601354188
517,Philadelphia,70.0,77,20,4.7,39.95,-75.16,US,1601354257
518,Heihe,57.2,50,20,8.95,50.24,127.49,CN,1601354527
519,Hay River,48.2,61,20,8.05,60.82,-115.8,CA,1601354055
520,Taoudenni,88.77,18,0,11.01,22.68,-3.98,ML,1601354119
521,Altus,57.2,32,1,5.82,34.64,-99.33,US,1601354528
522,Liverpool,51.01,93,2,1.12,53.41,-2.98,GB,1601354250
523,Morropón,64.49,75,41,1.86,-5.18,-79.97,PE,1601354528
524,Mozarlândia,82.15,25,29,4.38,-14.74,-50.57,BR,1601354529
525,São Paulo de Olivença,72.0,92,92,2.01,-3.38,-68.87,BR,1601354529
526,Great Bend,52.0,42,1,6.93,38.36,-98.76,US,1601354529
527,Diamantino,78.57,46,26,2.98,-14.41,-56.45,BR,1601354530
528,Adrar,83.44,27,0,5.95,20.5,-10.07,MR,1601354173
529,Abu Samrah,77.0,46,0,5.03,35.3,37.18,SY,1601354530
530,Umm Hājar,80.17,71,94,5.88,13.3,19.7,TD,1601354531
531,Linhares,70.63,93,15,3.91,-19.39,-40.07,BR,1601354531
532,Shelburne,57.99,100,90,2.24,44.08,-80.2,CA,1601354394
533,Guarapari,77.0,83,0,11.41,-20.67,-40.5,BR,1601354532
534,Porbandar,84.2,74,20,5.82,21.64,69.61,IN,1601354407
535,Huarmey,60.53,86,31,9.55,-10.07,-78.15,PE,1601354238
536,Badarganj,89.28,65,18,3.13,25.67,89.05,BD,1601354532
537,Rafaela,55.99,38,0,4.0,-31.25,-61.49,AR,1601354262
538,Melita,51.01,75,100,8.01,49.27,-101.0,CA,1601354533
539,Sydney,66.0,45,20,14.99,-33.87,151.21,AU,1601354093
540,Licata,57.99,93,2,2.24,37.11,13.95,IT,1601354533
541,Vikýřovice,48.99,97,100,1.99,49.98,17.01,CZ,1601354534
542,Ciudad Real,58.5,35,75,2.46,39.0,-4.0,ES,1601354534
543,Ayorou,88.39,34,0,3.02,14.73,0.92,NE,1601354534
544,Wad Rāwah,89.58,42,99,8.1,15.16,33.14,SD,1601354535
545,Quelimane,73.4,88,0,2.24,-17.88,36.89,MZ,1601354535
546,Santa Maria,52.81,83,0,2.13,-29.68,-53.81,BR,1601354536
547,Batticaloa,85.55,66,71,2.68,7.71,81.69,LK,1601354268
548,Saint-Raymond,69.01,88,20,8.05,45.47,-73.61,CA,1601354536
549,Florø,51.8,100,75,9.17,61.6,5.03,NO,1601354536
550,Makakilo City,82.4,65,1,10.29,21.35,-158.09,US,1601354497
551,Storebø,55.99,100,90,6.93,60.09,5.23,NO,1601354537
552,Ahipara,55.0,65,30,14.0,-35.17,173.17,NZ,1601354250
553,Bahía Honda,78.04,86,77,6.24,22.9,-83.16,CU,1601354537
554,Lokoja,74.16,93,100,3.8,7.8,6.74,NG,1601354537
555,Singānallūr,80.6,74,40,9.17,11.0,77.02,IN,1601354538
556,Fredericton,66.0,100,90,8.05,45.95,-66.67,CA,1601354385
557,Rodrigues Alves,71.44,96,100,1.41,-7.74,-72.65,BR,1601354201
558,Chumikan,47.08,83,99,6.96,54.72,135.31,RU,1601354031
559,Arrecife,73.4,64,90,8.05,28.96,-13.55,ES,1601354539
560,Fairbanks,46.4,75,90,2.04,64.84,-147.72,US,1601354110
561,Grand-Lahou,74.77,95,90,4.94,5.14,-5.02,CI,1601354539
562,Harmanli,66.0,78,52,1.99,41.93,25.9,BG,1601354539
563,Chalmette,70.0,77,40,13.87,29.94,-89.96,US,1601354540
564,Al Bardīyah,79.65,52,0,6.38,31.76,25.09,LY,1601354540
565,Pontal do Paraná,59.0,100,75,5.82,-25.65,-48.51,BR,1601354540
566,Vágur,49.69,86,0,11.34,61.47,-6.81,FO,1601354541
567,Kumukh,58.33,51,14,2.24,42.17,47.12,RU,1601354541
568,Cayenne,77.0,94,90,9.24,4.93,-52.33,GF,1601353808
569,Seymchan,52.92,45,27,13.71,62.88,152.43,RU,1601354542
570,Malindi,79.59,75,97,10.18,-3.22,40.12,KE,1601354542
571,Steamboat Springs,39.2,29,1,2.82,40.48,-106.83,US,1601354440
572,Griffith,51.8,81,1,3.36,41.53,-87.42,US,1601354168
573,Rūdbār,67.75,29,24,15.32,30.15,62.6,AF,1601354178
574,Dingle,88.34,65,12,3.33,11.0,122.67,PH,1601353987
575,East Brainerd,60.01,94,100,5.37,35.0,-85.15,US,1601354543
576,Amasya Province,57.2,62,0,2.24,40.67,35.83,TR,1601354543
577,Cintalapa,69.67,93,99,1.95,16.7,-93.73,MX,1601354544
578,Takoradze,75.06,93,99,5.5,4.88,-1.76,GH,1601354246
579,Flinders,69.01,55,26,4.0,-34.58,150.86,AU,1601354234
580,Zhangye,70.77,32,73,8.39,38.93,100.45,CN,1601354545
581,Krasnokholmskiy,53.87,76,23,1.05,55.99,55.05,RU,1601354545
582,Rassvet,58.41,56,59,20.78,46.83,40.75,RU,1601354545
583,Minsk,42.8,100,100,4.47,53.9,27.57,BY,1601354545
584,São Félix do Xingu,74.68,68,5,1.36,-6.64,-51.99,BR,1601354177
585,Vardø,50.0,87,75,3.36,70.37,31.11,NO,1601354086
586,Shingū,78.8,61,75,3.36,33.73,135.98,JP,1601354547
587,Cascais,64.0,71,3,10.54,38.7,-9.42,PT,1601354547
588,Soyo,73.54,82,97,6.29,-6.13,12.37,AO,1601354547
589,Sola,79.43,85,40,14.09,-13.88,167.55,VU,1601354548
590,Dano,75.87,81,79,2.53,11.15,-3.07,BF,1601354548
591,Rostovka,44.15,61,21,12.24,55.38,71.89,RU,1601354549
592,Sokoni,77.86,76,100,8.81,-6.43,39.55,TZ,1601354549
593,Corinth,66.99,60,1,1.99,37.94,22.96,GR,1601354549
594,Betlitsa,50.36,91,97,5.86,54.01,33.96,RU,1601354550
595,Seoul,77.0,43,20,8.14,37.57,126.98,KR,1601354550
596,Chicama,61.07,82,20,4.85,-7.84,-79.15,PE,1601354550
